{"type":"FeatureCollection","features":[{"type":"Feature","properties":{"Name":"StormBreaker Brewing","Description":"Bar area with outdoor seating","URL":"http://www.stormbreakerbrewing.com/","Address":""},"geometry":{"type":"Point","coordinates":[-122.67525494098663,45.54943735547882]}},{"type":"Feature","properties":{"Name":"HopWorks Bike Bar","Description":"Bike decor","URL":"http://hopworksbeer.com/general-info/bikebar"},"geometry":{"type":"Point","coordinates":[-122.66692399978638,45.55142084092137]}},{"type":"Feature","properties":{"Name":"Ecliptic Brewing"},"geometry":{"type":"Point","coordinates":[-122.67511010169981,45.547468827237395]}},{"type":"Feature","properties":{"Name":"Widmer Brothers","Description":"","URL":"","Address":"929 North Russell Street","City":"Portland","State":"OR"},"geometry":{"type":"Point","coordinates":[-122.67673015594481,45.54122468041235]}},{"type":"Feature","properties":{"Address":"2326 North Flint Avenue ","City":"Portland","State":"OR","Name":"Ex Novo Brewing"},"geometry":{"type":"Point","coordinates":[-122.66841530799866,45.540037387504924]}}]}